<response><row><row _id="1" _uuid="3F761270-9FAA-45D2-A6E4-C35F786CABF9" _position="1" _address="https://data.cityofchicago.org/resource/i8y3-ytj4/1"><location>Bridgeport</location><intersection>35th &amp; Wallace</intersection><day>Saturday</day><start_time>7:00 AM</start_time><end_time>1:00 pm</end_time><start_date>2013-06-15T00:00:00</start_date><end_date>2013-10-05T00:00:00</end_date><website url="http://www.chicagofarmersmarkets.us"/><type>Weekly</type><link_accepted>N</link_accepted><latitude>41.83070280330</latitude><longitude>-87.64144235010</longitude><map latitude="41.83070280330" longitude="-87.64144235010" needs_recoding="false"/></row><row _id="2" _uuid="623599E6-E87A-4D9A-8830-9D03D65646EF" _position="2" _address="https://data.cityofchicago.org/resource/i8y3-ytj4/2"><location>Beverly</location><intersection>W 95th St &amp; S Longwood Dr</intersection><day>Sunday</day><start_time>7:00 AM</start_time><end_time>1:00 PM</end_time><start_date>2013-05-12T00:00:00</start_date><end_date>2013-10-27T00:00:00</end_date><website url="http://www.chicagofarmersmarkets.us"/><type>Weekly</type><link_accepted>Y</link_accepted><latitude>41.72112349060</latitude><longitude>-87.66913968120</longitude><map latitude="41.72112349060" longitude="-87.66913968120" needs_recoding="false"/></row><row _id="3" _uuid="C514F687-9E04-43FF-90D6-C9DFEA785BCC" _position="3" _address="https://data.cityofchicago.org/resource/i8y3-ytj4/3"><location>Daley Plaza</location><intersection>W Washington St &amp; N Dearborn St</intersection><day>Thursday</day><start_time>7:00 AM</start_time><end_time>3:00 PM</end_time><start_date>2013-05-16T00:00:00</start_date><end_date>2013-10-24T00:00:00</end_date><website url="http://www.chicagofarmersmarkets.us"/><type>Downtown</type><link_accepted>Y</link_accepted><latitude>41.88346158510</latitude><longitude>-87.63001201810</longitude><map latitude="41.88346158510" longitude="-87.63001201810" needs_recoding="false"/></row><row _id="4" _uuid="24720BDD-DACF-4405-AB20-5AC26EA7B68A" _position="4" _address="https://data.cityofchicago.org/resource/i8y3-ytj4/4"><location>Federal Plaza</location><intersection>W Adams St &amp; S Dearborn St</intersection><day>Tuesday</day><start_time>7:00 AM</start_time><end_time>3:00 PM</end_time><start_date>2013-05-21T00:00:00</start_date><end_date>2013-10-29T00:00:00</end_date><website url="http://www.chicagofarmersmarkets.us"/><type>Downtown</type><link_accepted>Y</link_accepted><latitude>41.87912229440</latitude><longitude>-87.62961734880</longitude><map latitude="41.87912229440" longitude="-87.62961734880" needs_recoding="false"/></row><row _id="5" _uuid="1B62D104-92D9-4D82-AFBF-36936F925A00" _position="5" _address="https://data.cityofchicago.org/resource/i8y3-ytj4/5"><location>Pullman</location><intersection>E 111th Pl &amp; S Cottage Grove Ave</intersection><day>Wednesday</day><start_time>7:00 AM</start_time><end_time>12:00 PM</end_time><start_date>2013-07-10T00:00:00</start_date><end_date>2013-10-30T00:00:00</end_date><website url="http://www.chicagofarmersmarkets.us"/><type>Weekly</type><link_accepted>Y</link_accepted><latitude>41.69182488530</latitude><longitude>-87.61006527900</longitude><map latitude="41.69182488530" longitude="-87.61006527900" needs_recoding="false"/></row><row _id="6" _uuid="05924063-F2AF-48EE-993A-E9AEF86997C2" _position="6" _address="https://data.cityofchicago.org/resource/i8y3-ytj4/6"><location>Hyde Park</location><intersection>53rd &amp; Hyde Park</intersection><day>Thursday</day><start_time>7:00 AM</start_time><end_time>1:00 PM</end_time><start_date>2013-06-06T00:00:00</start_date><end_date>2013-10-31T00:00:00</end_date><website url="http://www.chicagofarmersmarkets.us"/><type>Weekly</type><link_accepted>Y</link_accepted><latitude>41.79994764910</latitude><longitude>-87.58365819370</longitude><map latitude="41.79994764910" longitude="-87.58365819370" needs_recoding="false"/></row><row _id="7" _uuid="01EBAD68-17A0-4E61-B568-8B5E2797D2B6" _position="7" _address="https://data.cityofchicago.org/resource/i8y3-ytj4/7"><location>Lincoln Park</location><intersection>W Armitage Ave &amp; N Orchard St</intersection><day>Saturday</day><start_time>7:00 AM</start_time><end_time>1:00 PM</end_time><start_date>2013-05-11T00:00:00</start_date><end_date>2013-10-26T00:00:00</end_date><website url="http://www.chicagofarmersmarkets.us"/><type>Weekly</type><link_accepted>N</link_accepted><latitude>41.91821424130</latitude><longitude>-87.64611764940</longitude><map latitude="41.91821424130" longitude="-87.64611764940" needs_recoding="false"/></row><row _id="8" _uuid="8268F9B7-71C1-4B50-88C2-2D9EF3A25030" _position="8" _address="https://data.cityofchicago.org/resource/i8y3-ytj4/8"><location>Lincoln Square</location><intersection>W Leland Ave &amp; N Western Ave</intersection><day>Tuesday</day><start_time>7:00 AM</start_time><end_time>1:00 PM</end_time><start_date>2013-06-04T00:00:00</start_date><end_date>2013-10-29T00:00:00</end_date><website url="http://www.chicagofarmersmarkets.us"/><type>Weekly</type><link_accepted>Y</link_accepted><latitude>41.96648354300</latitude><longitude>-87.68874981320</longitude><map latitude="41.96648354300" longitude="-87.68874981320" needs_recoding="false"/></row><row _id="9" _uuid="AEDF7D2E-E1C2-4AC0-89E4-675DB9EC0056" _position="9" _address="https://data.cityofchicago.org/resource/i8y3-ytj4/9"><location>Museum of Contemporary Art/Streeterville</location><intersection>E Chicago Ave &amp; N Mies Van Der Rohe Way</intersection><day>Tuesday</day><start_time>7:00 AM</start_time><end_time>3:00 PM</end_time><start_date>2013-06-04T00:00:00</start_date><end_date>2013-10-29T00:00:00</end_date><website url="http://www.chicagofarmersmarkets.us"/><type>Weekly</type><link_accepted>N</link_accepted><latitude>41.89676861070</latitude><longitude>-87.62183104960</longitude><map latitude="41.89676861070" longitude="-87.62183104960" needs_recoding="false"/></row><row _id="10" _uuid="ED2D133E-5334-47D8-829B-58454A61DE48" _position="10" _address="https://data.cityofchicago.org/resource/i8y3-ytj4/10"><location>Division Street</location><intersection>W Division St &amp; N Dearborn St</intersection><day>Saturday</day><start_time>7:00 AM</start_time><end_time>1:00 PM</end_time><start_date>2013-05-11T00:00:00</start_date><end_date>2013-10-26T00:00:00</end_date><website url="http://www.chicagofarmersmarkets.us"/><type>Weekly</type><link_accepted>Y</link_accepted><latitude>41.90392318730</latitude><longitude>-87.62998608510</longitude><map latitude="41.90392318730" longitude="-87.62998608510" needs_recoding="false"/></row><row _id="11" _uuid="58F16538-8F0E-4ADA-A312-E210E45DC846" _position="11" _address="https://data.cityofchicago.org/resource/i8y3-ytj4/11"><location>Garfield Park Conservatory</location><intersection>300 N. Central Park</intersection><day>Sunday</day><start_time>11:00 AM</start_time><end_time>4:00 PM</end_time><start_date>2013-06-23T00:00:00</start_date><end_date>2013-10-27T00:00:00</end_date><type>Weekly</type><link_accepted>Y</link_accepted><latitude>41.88531887850</latitude><longitude>-87.71768157150</longitude><map latitude="41.88531887850" longitude="-87.71768157150" needs_recoding="false"/></row><row _id="12" _uuid="9DD279B5-2C55-48C9-A049-B93C659C85F5" _position="12" _address="https://data.cityofchicago.org/resource/i8y3-ytj4/12"><location>Northcenter</location><intersection>W Belle Plaine Ave &amp; N Damen Ave</intersection><day>Saturday</day><start_time>7:00 AM</start_time><end_time>1:00 PM</end_time><start_date>2013-06-15T00:00:00</start_date><end_date>2013-10-26T00:00:00</end_date><website url="http://www.chicagofarmersmarkets.us"/><type>Weekly</type><link_accepted>N</link_accepted><latitude>41.95597562580</latitude><longitude>-87.67910156960</longitude><map latitude="41.95597562580" longitude="-87.67910156960" needs_recoding="false"/></row><row _id="13" _uuid="89E14776-02BF-448D-8494-DC3ABD17A5A3" _position="13" _address="https://data.cityofchicago.org/resource/i8y3-ytj4/13"><location>Printer's Row</location><intersection>S Dearborn St &amp; W Polk St</intersection><day>Saturday</day><start_time>7:00 AM</start_time><end_time>1:00 PM</end_time><start_date>2013-06-15T00:00:00</start_date><end_date>2013-10-26T00:00:00</end_date><website url="http://www.chicagofarmersmarkets.us"/><type>Weekly</type><link_accepted>N</link_accepted><latitude>41.87228245260</latitude><longitude>-87.62912949550</longitude><map latitude="41.87228245260" longitude="-87.62912949550" needs_recoding="false"/></row><row _id="14" _uuid="35894B50-CEA2-47AC-8A1D-9171A869DEC1" _position="14" _address="https://data.cityofchicago.org/resource/i8y3-ytj4/14"><location>South Shore</location><intersection>77th and Lake Michigan</intersection><day>Sunday</day><start_time>1:00 PM</start_time><end_time>5:00 PM</end_time><start_date>2013-06-23T00:00:00</start_date><end_date>2013-08-25T00:00:00</end_date><website url="http://www.chicagofarmersmarkets.us"/><type>Weekly</type><link_accepted>Y</link_accepted><latitude>41.75880980560</latitude><longitude>-87.54973116440</longitude><map latitude="41.75880980560" longitude="-87.54973116440" needs_recoding="false"/></row><row _id="15" _uuid="7E061C18-7DAE-4901-9FDE-69012D5CE61C" _position="15" _address="https://data.cityofchicago.org/resource/i8y3-ytj4/15"><location>Willis Tower Plaza</location><intersection>W Jackson Blvd &amp; S Wacker Dr</intersection><day>Thursday</day><start_time>7:00 AM</start_time><end_time>3:00 PM</end_time><start_date>2013-06-27T00:00:00</start_date><end_date>2013-10-31T00:00:00</end_date><website url="http://www.chicagofarmersmarkets.us"/><type>Downtown</type><link_accepted>Y</link_accepted><latitude>41.87734375060</latitude><longitude>-87.63661966810</longitude><map latitude="41.87734375060" longitude="-87.63661966810" needs_recoding="false"/></row><row _id="16" _uuid="700CB454-B7B4-4795-B684-50E0803D9D41" _position="16" _address="https://data.cityofchicago.org/resource/i8y3-ytj4/16"><location>Wicker Park &amp; Bucktown</location><intersection>N Wicker Park &amp; Damen Ave</intersection><day>Sunday</day><start_time>8:00 AM</start_time><end_time>2:00 PM</end_time><start_date>2013-06-02T00:00:00</start_date><end_date>2013-10-27T00:00:00</end_date><website url="http://www.chicagofarmersmarkets.us"/><type>Weekly</type><link_accepted>Y</link_accepted><latitude>41.91048691240</latitude><longitude>-87.67744429290</longitude><map latitude="41.91048691240" longitude="-87.67744429290" needs_recoding="false"/></row><row _id="17" _uuid="21D61EA7-FBEA-42D0-8F74-B760751462F6" _position="17" _address="https://data.cityofchicago.org/resource/i8y3-ytj4/17"><location>West Humboldt Park Farmers Market &amp; Bazaar</location><intersection>3601 W Chicago Ave</intersection><day>Saturday</day><start_time>10:00 AM</start_time><end_time>3:00 PM</end_time><start_date>2013-06-29T00:00:00</start_date><end_date>2013-10-26T00:00:00</end_date><website url="http://www.whpdevelopmentcouncil.net/index.html"/><type>Independent</type><link_accepted>Y</link_accepted><latitude>41.89527979420</latitude><longitude>-87.71657104590</longitude><map latitude="41.89527979420" longitude="-87.71657104590" needs_recoding="false"/></row><row _id="18" _uuid="30837284-5154-4B06-9E6E-99FB812C1C69" _position="18" _address="https://data.cityofchicago.org/resource/i8y3-ytj4/18"><location>Southport Market</location><intersection>1420 West Grace (Blaine School)</intersection><day>Saturday</day><start_time>8:00 AM</start_time><end_time>2:00 PM</end_time><start_date>2013-06-22T00:00:00</start_date><end_date>2013-10-05T00:00:00</end_date><website url="http://www.chicagofarmersmarkets.us"/><type>Weekly</type><link_accepted>N</link_accepted><latitude>41.95076324830</latitude><longitude>-87.66472522440</longitude><map latitude="41.95076324830" longitude="-87.66472522440" needs_recoding="false"/></row><row _id="19" _uuid="B4D7C8BF-7E78-469A-A3B6-C70BD2077FA3" _position="19" _address="https://data.cityofchicago.org/resource/i8y3-ytj4/19"><location>Logan Square Night Market</location><intersection>3107 W Logan Blvd</intersection><day>Wednesday</day><start_time>5:00 PM</start_time><end_time>9:00 PM</end_time><start_date>2013-06-26T00:00:00</start_date><end_date>2013-09-04T00:00:00</end_date><website url="http://www.logansquarefarmersmarket.org"/><type>Independent</type><link_accepted>Y</link_accepted><latitude>41.92841358610</latitude><longitude>-87.70536734890</longitude><map latitude="41.92841358610" longitude="-87.70536734890" needs_recoding="false"/></row><row _id="20" _uuid="B0FE9B4B-3CE4-4EEB-B06B-49F47E778CF9" _position="20" _address="https://data.cityofchicago.org/resource/i8y3-ytj4/20"><location>La Follette Park</location><intersection>1333 N Laramie Ave</intersection><day>Wednesday</day><start_time>2:00 pm</start_time><end_time>7:00 PM</end_time><start_date>2013-06-26T00:00:00</start_date><end_date>2013-10-30T00:00:00</end_date><website url="http://www.chicagofarmersmarkets.us"/><type>Weekly</type><link_accepted>Y</link_accepted><latitude>41.90504906320</latitude><longitude>-87.75555327700</longitude><map latitude="41.90504906320" longitude="-87.75555327700" needs_recoding="false"/></row><row _id="21" _uuid="FDB72906-F5B5-4DC5-BD36-2C1C6CA1E5C2" _position="21" _address="https://data.cityofchicago.org/resource/i8y3-ytj4/21"><location>Columbus Park</location><intersection>Harrison &amp; Central</intersection><day>Tuesday</day><start_time>2:00 PM</start_time><end_time>7:00 PM</end_time><start_date>2013-06-25T00:00:00</start_date><end_date>2013-10-29T00:00:00</end_date><website url="http://www.chicagofarmersmarkets.us"/><type>Weekly</type><link_accepted>Y</link_accepted><latitude>41.87263634810</latitude><longitude>-87.76501012950</longitude><map latitude="41.87263634810" longitude="-87.76501012950" needs_recoding="false"/></row><row _id="22" _uuid="22C5CCC8-7D9D-4535-AA3C-C376C3D95C19" _position="22" _address="https://data.cityofchicago.org/resource/i8y3-ytj4/22"><location>Austin Town Center</location><intersection>Lake &amp; Central</intersection><day>Saturday</day><start_time>10:00 AM</start_time><end_time>2:00 PM</end_time><start_date>2013-06-29T00:00:00</start_date><end_date>2013-10-26T00:00:00</end_date><website url="http://www.chicagofarmersmarkets.us"/><type>Weekly</type><link_accepted>Y</link_accepted><latitude>41.88784112660</latitude><longitude>-87.76525281040</longitude><map latitude="41.88784112660" longitude="-87.76525281040" needs_recoding="false"/></row><row _id="23" _uuid="27038367-7588-4BE1-9ABF-470789F62B1C" _position="23" _address="https://data.cityofchicago.org/resource/i8y3-ytj4/23"><location>Argyle Market</location><intersection>Argyle and Broadway</intersection><day>Thursday</day><start_time>5:00 PM</start_time><end_time>9:00 PM</end_time><start_date>2013-06-27T00:00:00</start_date><end_date>2013-09-05T00:00:00</end_date><type>Weekly</type><link_accepted>Y</link_accepted><latitude>41.97257784070</latitude><longitude>-87.65947951940</longitude><map latitude="41.97257784070" longitude="-87.65947951940" needs_recoding="false"/></row><row _id="24" _uuid="317C8BD8-8432-45C4-B989-E38D4CD5ACA0" _position="24" _address="https://data.cityofchicago.org/resource/i8y3-ytj4/24"><location>Devon Community Monthly Market</location><intersection>2720 W Devon</intersection><day>Varies</day><start_time>10:00 AM</start_time><end_time>2:00 PM</end_time><start_date>2013-07-07T00:00:00</start_date><end_date>2013-10-06T00:00:00</end_date><type>Monthly</type><link_accepted>N</link_accepted><latitude>41.99780959970</latitude><longitude>-87.69743735940</longitude><map latitude="41.99780959970" longitude="-87.69743735940" needs_recoding="false"/></row></row></response>